{
"type": "FeatureCollection",
"name": "labels",
"crs": { "type": "name", "properties": { "name": "urn:ogc:def:crs:OGC:1.3:CRS84" } },
"features": [
{ "type": "Feature", "properties": { "NAME_1": "Cherkasy", "TYPE_1": "Oblast'" }, "geometry": { "type": "Point", "coordinates": [ 31.378328773055923, 49.253558906033938 ] } },
{ "type": "Feature", "properties": { "NAME_1": "Chernihiv", "TYPE_1": "Oblast'" }, "geometry": { "type": "Point", "coordinates": [ 32.016707291959463, 51.347161999425602 ] } },
{ "type": "Feature", "properties": { "NAME_1": "Chernivtsi", "TYPE_1": "Oblast'" }, "geometry": { "type": "Point", "coordinates": [ 25.97109022158471, 48.269840881514625 ] } },
{ "type": "Feature", "properties": { "NAME_1": "Crimea", "TYPE_1": "Oblast'" }, "geometry": { "type": "Point", "coordinates": [ 34.380386540496843, 45.332969010161811 ] } },
{ "type": "Feature", "properties": { "NAME_1": "Dnipropetrovsk", "TYPE_1": "Oblast'" }, "geometry": { "type": "Point", "coordinates": [ 34.856525589528331, 48.275781498116636 ] } },
{ "type": "Feature", "properties": { "NAME_1": "Donetsk", "TYPE_1": "Oblast'" }, "geometry": { "type": "Point", "coordinates": [ 37.357404036035462, 48.603725650796754 ] } },
{ "type": "Feature", "properties": { "NAME_1": "Ivano-Frankivsk", "TYPE_1": "Oblast'" }, "geometry": { "type": "Point", "coordinates": [ 24.609296012618877, 48.705100720159201 ] } },
{ "type": "Feature", "properties": { "NAME_1": "Kharkiv", "TYPE_1": "Oblast'" }, "geometry": { "type": "Point", "coordinates": [ 36.514405732028287, 49.612760784690124 ] } },
{ "type": "Feature", "properties": { "NAME_1": "Kherson", "TYPE_1": "Oblast'" }, "geometry": { "type": "Point", "coordinates": [ 33.573161227310386, 46.660739700881095 ] } },
{ "type": "Feature", "properties": { "NAME_1": "Khmelnytskyi", "TYPE_1": "Oblast'" }, "geometry": { "type": "Point", "coordinates": [ 26.930303879578027, 49.509021995054447 ] } },
{ "type": "Feature", "properties": { "NAME_1": "Kyiv", "TYPE_1": "Independent City" }, "geometry": { "type": "Point", "coordinates": [ 30.550572459243547, 50.447518833771724 ] } },
{ "type": "Feature", "properties": { "NAME_1": "Kirovohrad", "TYPE_1": "Oblast'" }, "geometry": { "type": "Point", "coordinates": [ 32.107160611161028, 48.460814315459459 ] } },
{ "type": "Feature", "properties": { "NAME_1": "Lviv", "TYPE_1": "Oblast'" }, "geometry": { "type": "Point", "coordinates": [ 23.921202055118204, 49.724836132001279 ] } },
{ "type": "Feature", "properties": { "NAME_1": "Luhansk", "TYPE_1": "Oblast'" }, "geometry": { "type": "Point", "coordinates": [ 39.026687685398521, 48.98594021193319 ] } },
{ "type": "Feature", "properties": { "NAME_1": "Mykolaiv", "TYPE_1": "Oblast'" }, "geometry": { "type": "Point", "coordinates": [ 31.789846991560729, 47.441979813833704 ] } },
{ "type": "Feature", "properties": { "NAME_1": "Odesa", "TYPE_1": "Oblast'" }, "geometry": { "type": "Point", "coordinates": [ 30.334136154950205, 47.198642853661255 ] } },
{ "type": "Feature", "properties": { "NAME_1": "Poltava", "TYPE_1": "Oblast'" }, "geometry": { "type": "Point", "coordinates": [ 33.811322304258482, 49.713595468057235 ] } },
{ "type": "Feature", "properties": { "NAME_1": "Rivne", "TYPE_1": "Oblast'" }, "geometry": { "type": "Point", "coordinates": [ 26.397584099082266, 51.043431992406234 ] } },
{ "type": "Feature", "properties": { "NAME_1": "Sevastopol'", "TYPE_1": "Autonomous Republic" }, "geometry": { "type": "Point", "coordinates": [ 33.652720659032305, 44.57314851986014 ] } },
{ "type": "Feature", "properties": { "NAME_1": "Sumy", "TYPE_1": "Oblast'" }, "geometry": { "type": "Point", "coordinates": [ 34.143123420956535, 51.094792562632442 ] } },
{ "type": "Feature", "properties": { "NAME_1": "Ternopil", "TYPE_1": "Oblast'" }, "geometry": { "type": "Point", "coordinates": [ 25.640005423069201, 49.402562468727986 ] } },
{ "type": "Feature", "properties": { "NAME_1": "Transcarpathia", "TYPE_1": "Oblast'" }, "geometry": { "type": "Point", "coordinates": [ 23.28121857782352, 48.405051491039735 ] } },
{ "type": "Feature", "properties": { "NAME_1": "Vinnytsia", "TYPE_1": "Oblast'" }, "geometry": { "type": "Point", "coordinates": [ 28.692086893853315, 48.92654587778506 ] } },
{ "type": "Feature", "properties": { "NAME_1": "Volyn", "TYPE_1": "Oblast'" }, "geometry": { "type": "Point", "coordinates": [ 24.883489247516057, 51.20285829525443 ] } },
{ "type": "Feature", "properties": { "NAME_1": "Zaporizhzhia", "TYPE_1": "Oblast'" }, "geometry": { "type": "Point", "coordinates": [ 35.69955669693811, 47.251382362551915 ] } },
{ "type": "Feature", "properties": { "NAME_1": "Zhytomyr", "TYPE_1": "Oblast'" }, "geometry": { "type": "Point", "coordinates": [ 28.484557318096826, 50.64261164656417 ] } },
{ "type": "Feature", "properties": { "NAME_1": "Russian\ncontrol", "TYPE_1": "direct label" }, "geometry": { "type": "Point", "coordinates": [ 38.655890706062962, 48.195833899458592 ] } },
{ "type": "Feature", "properties": { "NAME_1": "Russia", "TYPE_1": "Admin-0 country" }, "geometry": { "type": "Point", "coordinates": [ 36.915605471268066, 51.97524122754853 ] } },
{ "type": "Feature", "properties": { "NAME_1": "Ukraine", "TYPE_1": "Admin-0 country" }, "geometry": { "type": "Point", "coordinates": [ 32.854939923413291, 49.197816307370807 ] } },
{ "type": "Feature", "properties": { "NAME_1": "Russian\noperations", "TYPE_1": "direct label" }, "geometry": { "type": "Point", "coordinates": [ 32.279959761816052, 50.879502019561777 ] } },
{ "type": "Feature", "properties": { "NAME_1": "Ukraine\nregained\ncontrol", "TYPE_1": "direct label" }, "geometry": { "type": "Point", "coordinates": [ 30.041752709088712, 51.000020860862477 ] } },
{ "type": "Feature", "properties": { "NAME_1": "Illegally\nannexed\nregions", "TYPE_1": "direct label" }, "geometry": { "type": "Point", "coordinates": [ 37.5451,46.214 ] } }
]
}
